[
  {
    "eventId": 1,
    "name": "Homecoming Parade",
    "dateStart": "2018-10-27T09:00:00-04:00",
    "description": "Annual SSU homecoming parade through the streets of downtown Savannah.",
    "location": {
      "name": "Downtown Savannah",
      "address": "",
      "address2": "",
      "city": "",
      "state": "",
      "zip": "",
      "latitude": 32.0273425,
      "longitude": -81.0687014
    },
    "audience": "All",
    "prices": [
      {
        "description": "General Admission",
        "amount": 0
      }
    ],
    "addtional": "",
    "links": [
      {
        "text": "Parade Information",
        "url": "#/parade"
      }
    ],
    "images": [
      {
        "src": "https://www.savannahstate.edu/homecoming/images/parade.jpg",
        "type": "banner"
      }
    ]
  },
  {
    "eventId": 2,
    "name": "Homecoming Football Game",
    "dateStart": "2018-10-27T15:00:00-04:00",
    "dateEnd": "2018-10-27T18:00:00-04:00",
    "description": "Watch our Savannah State University Tigers face the Norfolk State University Spartans.",
    "location": {
      "name": "T.A. Wright Stadium",
      "address": "3219 College St",
      "address2": "",
      "city": "Savannah",
      "state": "GA",
      "zip": "31404",
      "latitude": 32.027593,
      "longitude": -81.068636
    },
    "audience": "All",
    "prices": [
      {
        "description": "General Admission",
        "amount": 20
      },
      {
        "description": "Premium Seating",
        "amount": 30
      }
    ],
    "addtional": "",
    "links": [
      {
        "text": "Game Tickets, Vending & Tailgating",
        "url": "#/football"
      },
      {
        "text": "Explore Tigers Football",
        "url": "http://ssuathletics.com/index.aspx?tab=football&path=football"
      }
    ],
    "images": [
      {
        "src": "https://www.savannahstate.edu/homecoming/images/football_smoke.jpg",
        "type": "banner"
      }
    ]
  },
  {
    "eventId": 3,
    "name": "Scholarship Golf Scramble",
    "dateStart": "2018-10-26T07:00:00-04:00",
    "dateEnd": "2018-10-26T17:30:00-04:00",
    "description": "Our goal is to recruit high-achieving students and graduate them within four years. Scholarships frequently make graduation a reality. Net proceeds from the golf tournament will fund scholarships for deserving students as they pursue their education.",
    "location": {
      "name": "Bacon Park Golf Course",
      "address": "1 Shorty Cooper Rd.",
      "address2": "",
      "city": "Savannah",
      "state": "GA",
      "zip": "31406",
      "latitude": 32.0096812,
      "longitude": -81.0851238
    },
    "audience": "All",
    "prices": [
      {
        "description": "Individual Golfer",
        "amount": 125
      },
      {
        "description": "Hole Sponsor (0 golfers)",
        "amount": 200
      },
      {
        "description": "Bronze Par Sponsorship (2 golfers)",
        "amount": 600
      },
      {
        "description": "Silver Par Sponsorship (4 golfers)",
        "amount": 1000
      },
      {
        "description": "Birdie Par Sponsorship (6 golfers)",
        "amount": 1500
      },
      {
        "description": "Eagle Par Sponsorship (8 golfers)",
        "amount": 2500
      },
      {
        "description": "Title Par Sponsorship (12 golfers)",
        "amount": 3500
      },
      {
        "description": "Presenting Par Sponsorship (16 golfers)",
        "amount": 5000
      }
    ],
    "addtional": "",
    "links": [
      {
        "text": "Register Now",
        "url": "https://give.savannahstate.edu/golf/individual"
      },
      {
        "text": "Sponsorship Opportunities",
        "url": "https://give.savannahstate.edu/golf/sponsors"
      },
      {
        "text": "Learn more about the Golf Classic",
        "url": "#/golf"
      }
    ],
    "images": [
      {
        "src": "https://www.savannahstate.edu/homecoming/images/golf.jpg",
        "type": "banner"
      }
    ],
    "contacts": [
      {
        "name": "ua@savannahstate.edu",
        "type": "email",
        "info": "ua@savannahstate.edu"
      },
      {
        "name": "912-358-3059",
        "type": "phone",
        "info": "912-358-3059"
      }
    ]
  },
  {
    "eventId": 4,
    "name": "Ecumenical Service",
    "dateStart": "2018-10-21T17:00:00-04:00",
    "description": "",
    "location": {
      "name": "Student Union Ballroom",
      "address": "3219 College St",
      "address2": "",
      "city": "Savannah",
      "state": "GA",
      "zip": "31404",
      "latitude": 32.022904,
      "longitude": -81.064068
    },
    "audience": "All",
    "prices": [
      {
        "description": "General Admission",
        "amount": 0
      }
    ],
    "addtional": "",
    "links": []
  },
  {
    "eventId": 21,
    "name": "Campus Parade",
    "dateStart": "2018-10-26T12:00:00-04:00",
    "description": "",
    "location": {
      "name": "Alexis Circle",
      "address": "3219 College St",
      "address2": "",
      "city": "Savannah",
      "state": "GA",
      "zip": "31404",
      "latitude": 32.022427,
      "longitude": -81.056576
    },
    "audience": "All",
    "prices": [
      {
        "description": "General Admission",
        "amount": 0
      }
    ],
    "addtional": "",
    "links": []
  },
  {
    "eventId": 220,
    "name": "Coronation Ceremony",
    "dateStart": "2018-10-25T19:00:00-04:00",
    "dateEnd": "2018-10-25T21:00:00-04:00",
    "description": "Lorem Ipsum. Proin gravida nibh vel velit auctor aliquet. Aenean sollicitudin, lorem quis bibendum auctor, nisi elit consequat ipsum, nec sagittis sem nibh id elit. Duis sed odio sit amet nibh vulputate cursus a sit amet mauris. Morbi accumsan ipsum velit. Nam nec tellus a odio tincidunt auctor a ornare odio. Sed non  mauris vitae erat consequat auctor eu in elit.",
    "location": {
      "name": "Tiger Arena",
      "address": "3219 College St",
      "address2": "",
      "city": "Savannah",
      "state": "GA",
      "zip": "31404",
      "latitude": 32.023909,
      "longitude": -81.065666
    },
    "audience": "All",
    "prices": [
      {
        "description": "General Admission",
        "amount": 0
      }
    ],
    "addtional": "",
    "links": [],
    "images": [
      {
        "src": "https://www.savannahstate.edu/homecoming/images/crown.jpg",
        "type": "banner"
      }
    ]
  },
  {
    "eventId": 210,
    "name": "SSUNAA Fish Fry",
    "dateStart": "2018-10-26T12:00:00-04:00",
    "description": "Annual SSU National Alumni Association fish fry.",
    "location": {
      "name": "Alexis Circle",
      "address": "3219 College St",
      "address2": "",
      "city": "Savannah",
      "state": "GA",
      "zip": "31404",
      "latitude": 32.022427,
      "longitude": -81.056576
    },
    "audience": "All",
    "prices": [
      {
        "description": "General Admission",
        "amount": 0
      }
    ],
    "addtional": "",
    "links": []
  },
  {
    "eventId": 2200,
    "name": "Greek Step Show & After Party",
    "dateStart": "2018-10-27T20:00:00-04:00",
    "description": "",
    "location": {
      "name": "Tiger Arena",
      "address": "3219 College St",
      "address2": "",
      "city": "Savannah",
      "state": "GA",
      "zip": "31404",
      "latitude": 32.023909,
      "longitude": -81.065666
    },
    "audience": "All",
    "prices": [
      {
        "description": "General Admission",
        "amount": 20
      }
    ],
    "addtional": "",
    "links": []
  },
  {
    "eventId": 2300,
    "name": "Worship Service",
    "dateStart": "2018-10-28T08:00:00-04:00",
    "description": "SSU National Alumni Association will host this worship service",
    "location": {
      "name": "Marriott Savannah Riverfront Hotel",
      "address": "100 General McIntosh Blvd",
      "address2": "",
      "city": "Savannah",
      "state": "GA",
      "zip": "31401",
      "latitude": 32.0786,
      "longitude": -81.0810
    },
    "audience": "All",
    "prices": [
      {
        "description": "General Admission",
        "amount": 0
      }
    ],
    "addtional": "",
    "links": []
  },

  {
    "eventId": 4443,
    "name": "President's Class Reunion Brunch",
    "dateStart": "2018-10-26T09:00:00-04:00",
    "description": "Brunch",
    "location": {
      "name": "Gardner Hall",
      "address": "3219 College St",
      "address2": "",
      "city": "Savannah",
      "state": "GA",
      "zip": "31404",
      "latitude": 32.023157,
      "longitude": -81.054213
    },
    "audience": "Alumni",
    "prices": [
      {
        "description": "Invite Only",
        "amount": 0
      }
    ],
    "addtional": "",
    "links": []
  },
  {
    "eventId": 7,
    "name": "Alumni Return to Campus Forum / Panel",
    "dateStart": "2018-10-25T14:00:00-04:00",
    "description": "",
    "location": {
      "name": "Student Union Ballroom",
      "address": "3219 College St",
      "address2": "",
      "city": "Savannah",
      "state": "GA",
      "zip": "31404",
      "latitude": 32.022904,
      "longitude": -81.064068
    },
    "audience": "Students, alumni, faculty, & staff",
    "prices": [
      {
        "description": "General Admission",
        "amount": 0
      }
    ],
    "addtional": "",
    "links": []
  },
  {
    "id": 8,
    "name": "Crowning Ceremony of National Alumni Queen",
    "dateStart": "2018-10-25T17:00:00-04:00",
    "description": "The crowning of the new SSUNAA Queen and her court along with chapter queens will be announced.",
    "location": {
      "name": "Asa Gordon Library",
      "address": "3219 College St",
      "address2": "",
      "city": "Savannah",
      "state": "GA",
      "zip": "31404",
      "latitude": 32.024755,
      "longitude": -81.063346
    },
    "audience": "Alumni",
    "prices": [
      {
        "description": "General Admission",
        "amount": 0
      }
    ],
    "addtional": "",
    "links": [

    ]
  },
  {
    "id": 13,
    "name": "SSUNAA Homecoming Gala",
    "dateStart": "2018-10-26T18:30:00-04:00",
    "description": "SSU National Alumni Association will give awards to alumni, alumni chapters and honorees (Life members).",
    "location": {
      "name": "Georgia Queen Riverboat",
      "address": "9 E River St.",
      "address2": "",
      "city": "Savannah",
      "state": "GA",
      "zip": "31401",
      "latitude": 32.0814562,
      "longitude": -81.0906012
    },
    "audience": "Alumni",
    "prices": [
      {
        "description": "W/ Early Registration",
        "amount": 175
      },
      {
        "description": "W/ Late Registration",
        "amount": 200
      },
      {
        "description": "At the door",
        "amount": 80
      }
    ],
    "addtional": "",
    "links": [
      {
        "text": "More Info",
        "url": "http://ssunaa.org/events/event/homecoming-weekend/"
      },
      {
        "text": "Savannah Riverboat Cruises",
        "url": "https://savannahriverboat.com/"
      }
    ]
  },
  {
    "id": 12,
    "name": "SSUNAA Information Session",
    "dateStart": "2018-10-26T15:00:00-04:00",
    "description": "Get information about the SSU National Alumni Association at this meeting.",
    "location": {
      "name": "Georgia Queen Riverboat",
      "address": "9 E River St.",
      "address2": "",
      "city": "Savannah",
      "state": "GA",
      "zip": "31401",
      "latitude": 32.0814562,
      "longitude": -81.0906012
    },
    "audience": "Alumni, students",
    "prices": [
      {
        "description": "General Admission",
        "amount": 0
      }
    ],
    "addtional": "",
    "links": [

    ]
  }
]
